{
  "type": "FeatureCollection",
  "features": [
    {
      "type": "Feature",
      "geometry": {
        "type": "Point",
        "coordinates": [
          -84.28295,
          30.46454
        ]
      },
      "properties": {
        "Name": "Hospital",
        "Address": "1820 Monroe St",
        "City": "Tallahassee",
        "State": "Florida",
        "ZipCode": "32303",
        "Country": "USA",
        "EntityType": "Restaurant"
      }
    },
    {
      "type": "Feature",
      "geometry": {
        "type": "Point",
        "coordinates": [
          -118.68013,
          34.27172
        ]
      },
      "properties": {
        "Name": "Hospital",
        "Address": "5726 Los Angeles Ave",
        "City": "Simi Valley",
        "State": "California",
        "ZipCode": "93063",
        "Country": "USA",
        "EntityType": "Restaurant"
      }
    },
    {
      "type": "Feature",
      "geometry": {
        "type": "Point",
        "coordinates": [
          -77.04702,
          38.91087
        ]
      },
      "properties": {
        "Name": "Fire Service",
        "Address": "2100 Massachusetts Ave",
        "City": "Washington",
        "State": "District of Columbia",
        "ZipCode": "20008",
        "Country": "USA",
        "EntityType": "Restaurant"
      }
    },
    {
      "type": "Feature",
      "geometry": {
        "type": "Point",
        "coordinates": [
          -73.90918,
          40.87734
        ]
      },
      "properties": {
        "Name": "Hospital",
        "Address": "151 228th St",
        "City": "New York",
        "State": "New York",
        "ZipCode": "10463",
        "Country": "USA",
        "EntityType": "Grocery Store"
      }
    },
    {
      "type": "Feature",
      "geometry": {
        "type": "Point",
        "coordinates": [
          -74.0235,
          40.63473
        ]
      },
      "properties": {
        "Name": "Hospital",
        "Address": "6824 4th Ave",
        "City": "New York",
        "State": "New York",
        "ZipCode": "11220",
        "Country": "USA",
        "EntityType": "Grocery Store"
      }
    },
    {
      "type": "Feature",
      "geometry": {
        "type": "Point",
        "coordinates": [
          -73.91947,
          40.72901
        ]
      },
      "properties": {
        "Name": "Hospitali",
        "Address": "55-02 48th St",
        "City": "New York",
        "State": "New York",
        "ZipCode": "11378",
        "Country": "USA",
        "EntityType": "Grocery Store"
      }
    },
    {
      "type": "Feature",
      "geometry": {
        "type": "Point",
        "coordinates": [
          -74.00916,
          40.72568
        ]
      },
      "properties": {
        "Name": "Hospital",
        "Address": "508 Greenwich St",
        "City": "New York",
        "State": "New York",
        "ZipCode": "10013",
        "Country": "USA",
        "EntityType": "Restaurant"
      }
    },
    {
      "type": "Feature",
      "geometry": {
        "type": "Point",
        "coordinates": [
          -74.05991,
          40.75018
        ]
      },
      "properties": {
        "Name": "Hospital",
        "Address": "555 Tonnele Ave",
        "City": "Jersey City",
        "State": "New Jersey",
        "ZipCode": "07307",
        "Country": "USA",
        "EntityType": "Grocery Store"
      }
    },
    {
      "type": "Feature",
      "geometry": {
        "type": "Point",
        "coordinates": [
          -105.2506,
          40.01458
        ]
      },
      "properties": {
        "Name": "Hospital",
        "Address": "3216 Arapahoe Ave",
        "City": "Boulder",
        "State": "Colorado",
        "ZipCode": "80303",
        "Country": "USA",
        "EntityType": "Restaurant"
      }
    },
    {
      "type": "Feature",
      "geometry": {
        "type": "Point",
        "coordinates": [
          -117.04481,
          33.1407
        ]
      },
      "properties": {
        "Name": "Hospital",
        "Address": "2355 Valley Pky",
        "City": "Escondido",
        "State": "California",
        "ZipCode": "92027",
        "Country": "USA",
        "EntityType": "School"
      }
    },
    {
      "type": "Feature",
      "geometry": {
        "type": "Point",
        "coordinates": [
          -85.38401,
          40.15725
        ]
      },
      "properties": {
        "Name": "Your location",
        "Address": "4019 Walnut St",
        "City": "Muncie",
        "State": "Indiana",
        "ZipCode": "47302",
        "Country": "USA",
        "EntityType": ""
      }
    },
    {
      "type": "Feature",
      "geometry": {
        "type": "Point",
        "coordinates": [
          -73.95274,
          40.7106
        ]
      },
      "properties": {
        "Name": "Hospital",
        "Address": "356 1st St",
        "City": "New York",
        "State": "New York",
        "ZipCode": "11211",
        "Country": "USA",
        "EntityType": "Grocery Store"
      }
    }
  ]
}